[
    {
        "id": 1,
        "name": "Laurie Cook",
        "location": {
            "city": "Snowmouth",
            "zip": "58896"
        },
        "skills": [
            "Python",
            "C++"
        ]
    },
    {
        "id": 2,
        "name": "Nicholas Jones",
        "location": {
            "city": "Christopherberg",
            "zip": "50357"
        },
        "skills": [
            "MongoDB",
            "Java",
            "JavaScript"
        ]
    },
    {
        "id": 3,
        "name": "Brianna Sanchez MD",
        "location": {
            "city": "Woodview",
            "zip": "60317"
        },
        "skills": [
            "React",
            "Flask",
            "SQL",
            "Python"
        ]
    },
    {
        "id": 4,
        "name": "Richard Gill",
        "location": {
            "city": "Jonathanville",
            "zip": "42587"
        },
        "skills": [
            "React",
            "SQL",
            "Flask",
            "Java",
            "MongoDB"
        ]
    },
    {
        "id": 5,
        "name": "Victor Hamilton",
        "location": {
            "city": "East Dannyshire",
            "zip": "58540"
        },
        "skills": [
            "Django",
            "Java",
            "SQL",
            "JavaScript",
            "Node.js"
        ]
    },
    {
        "id": 6,
        "name": "David Wilson",
        "location": {
            "city": "Alishaland",
            "zip": "07087"
        },
        "skills": [
            "JavaScript",
            "C++",
            "Django"
        ]
    },
    {
        "id": 7,
        "name": "Dennis Alexander",
        "location": {
            "city": "West Jonathan",
            "zip": "04758"
        },
        "skills": [
            "MongoDB",
            "C++",
            "React",
            "Node.js"
        ]
    },
    {
        "id": 8,
        "name": "John Garcia",
        "location": {
            "city": "Pageland",
            "zip": "75039"
        },
        "skills": [
            "MongoDB",
            "React"
        ]
    },
    {
        "id": 9,
        "name": "Samuel Ward",
        "location": {
            "city": "South Scottberg",
            "zip": "93278"
        },
        "skills": [
            "SQL",
            "Node.js"
        ]
    },
    {
        "id": 10,
        "name": "Nicholas Navarro",
        "location": {
            "city": "Port Brandy",
            "zip": "85579"
        },
        "skills": [
            "Python",
            "React",
            "Node.js",
            "JavaScript"
        ]
    },
    {
        "id": 11,
        "name": "Cynthia Butler",
        "location": {
            "city": "Shawntown",
            "zip": "43627"
        },
        "skills": [
            "SQL",
            "C++",
            "Django",
            "Python"
        ]
    },
    {
        "id": 12,
        "name": "Melissa Butler",
        "location": {
            "city": "New George",
            "zip": "78797"
        },
        "skills": [
            "JavaScript",
            "C++",
            "Django",
            "Flask",
            "Node.js"
        ]
    },
    {
        "id": 13,
        "name": "Rebecca Soto",
        "location": {
            "city": "Courtneyfurt",
            "zip": "60793"
        },
        "skills": [
            "Flask",
            "Node.js",
            "Python",
            "React"
        ]
    },
    {
        "id": 14,
        "name": "Joanna Gregory",
        "location": {
            "city": "South Melinda",
            "zip": "15596"
        },
        "skills": [
            "Java",
            "C++",
            "Django"
        ]
    },
    {
        "id": 15,
        "name": "Cheryl Jensen",
        "location": {
            "city": "West Jessicaport",
            "zip": "85229"
        },
        "skills": [
            "SQL",
            "MongoDB",
            "JavaScript"
        ]
    },
    {
        "id": 16,
        "name": "Nathan Moore",
        "location": {
            "city": "Port Edward",
            "zip": "75479"
        },
        "skills": [
            "Java",
            "C++",
            "MongoDB",
            "SQL"
        ]
    },
    {
        "id": 17,
        "name": "Alec Miller",
        "location": {
            "city": "Cameronmouth",
            "zip": "81945"
        },
        "skills": [
            "JavaScript",
            "Django",
            "Node.js",
            "SQL",
            "C++"
        ]
    },
    {
        "id": 18,
        "name": "Aaron Thompson",
        "location": {
            "city": "North Angelica",
            "zip": "73757"
        },
        "skills": [
            "C++",
            "Django",
            "JavaScript",
            "MongoDB"
        ]
    },
    {
        "id": 19,
        "name": "Jessica Allen",
        "location": {
            "city": "Lake Caitlin",
            "zip": "36439"
        },
        "skills": [
            "Django",
            "Node.js",
            "SQL",
            "React"
        ]
    },
    {
        "id": 20,
        "name": "Miguel Parker",
        "location": {
            "city": "Caseyville",
            "zip": "50705"
        },
        "skills": [
            "React",
            "C++",
            "Flask",
            "Django",
            "JavaScript"
        ]
    },
    {
        "id": 21,
        "name": "Matthew Brown",
        "location": {
            "city": "Mariaton",
            "zip": "16966"
        },
        "skills": [
            "Django",
            "React"
        ]
    },
    {
        "id": 22,
        "name": "Brittany Green",
        "location": {
            "city": "Anthonybury",
            "zip": "80805"
        },
        "skills": [
            "SQL",
            "React",
            "Python",
            "MongoDB"
        ]
    },
    {
        "id": 23,
        "name": "Kathryn Gibson",
        "location": {
            "city": "Lake Sydneyton",
            "zip": "60707"
        },
        "skills": [
            "SQL",
            "MongoDB",
            "Java"
        ]
    },
    {
        "id": 24,
        "name": "Jeffrey Baker",
        "location": {
            "city": "North Stephanie",
            "zip": "69772"
        },
        "skills": [
            "C++",
            "Django",
            "Node.js"
        ]
    },
    {
        "id": 25,
        "name": "Kayla Moses",
        "location": {
            "city": "New Todd",
            "zip": "25420"
        },
        "skills": [
            "Node.js",
            "JavaScript",
            "Flask",
            "SQL"
        ]
    },
    {
        "id": 26,
        "name": "Christina Williams",
        "location": {
            "city": "Port Ronald",
            "zip": "15451"
        },
        "skills": [
            "React",
            "JavaScript",
            "SQL",
            "C++",
            "MongoDB"
        ]
    },
    {
        "id": 27,
        "name": "Brian Mcbride",
        "location": {
            "city": "West Peggyberg",
            "zip": "27333"
        },
        "skills": [
            "Python",
            "MongoDB",
            "SQL",
            "Django",
            "C++"
        ]
    },
    {
        "id": 28,
        "name": "Edward Roberts",
        "location": {
            "city": "Walkerfurt",
            "zip": "21342"
        },
        "skills": [
            "Node.js",
            "Python",
            "SQL",
            "Java"
        ]
    },
    {
        "id": 29,
        "name": "Dana Joyce",
        "location": {
            "city": "Port Brendafurt",
            "zip": "85737"
        },
        "skills": [
            "Node.js",
            "C++"
        ]
    },
    {
        "id": 30,
        "name": "Rodney Martin",
        "location": {
            "city": "Smithport",
            "zip": "51643"
        },
        "skills": [
            "Python",
            "SQL",
            "Java"
        ]
    },
    {
        "id": 31,
        "name": "Justin Johnson",
        "location": {
            "city": "East Jenniferstad",
            "zip": "92066"
        },
        "skills": [
            "SQL",
            "MongoDB",
            "Django"
        ]
    },
    {
        "id": 32,
        "name": "Ryan Marsh",
        "location": {
            "city": "Candacechester",
            "zip": "33571"
        },
        "skills": [
            "C++",
            "Python"
        ]
    },
    {
        "id": 33,
        "name": "Whitney Davis",
        "location": {
            "city": "Andersonmouth",
            "zip": "92699"
        },
        "skills": [
            "Django",
            "MongoDB",
            "React",
            "Java"
        ]
    },
    {
        "id": 34,
        "name": "Melissa Estrada",
        "location": {
            "city": "New Jamiestad",
            "zip": "83318"
        },
        "skills": [
            "Node.js",
            "C++",
            "Java",
            "JavaScript",
            "MongoDB"
        ]
    },
    {
        "id": 35,
        "name": "Brian Wilson",
        "location": {
            "city": "North Ryantown",
            "zip": "00916"
        },
        "skills": [
            "React",
            "Node.js",
            "SQL",
            "Java"
        ]
    },
    {
        "id": 36,
        "name": "Meredith Reid",
        "location": {
            "city": "Lake Adam",
            "zip": "96341"
        },
        "skills": [
            "Flask",
            "Java",
            "Node.js",
            "SQL"
        ]
    },
    {
        "id": 37,
        "name": "Lorraine Cooper",
        "location": {
            "city": "West Rachelside",
            "zip": "64761"
        },
        "skills": [
            "React",
            "Django",
            "Python",
            "MongoDB",
            "JavaScript"
        ]
    },
    {
        "id": 38,
        "name": "Thomas Mcdonald",
        "location": {
            "city": "South Michaelview",
            "zip": "91296"
        },
        "skills": [
            "Django",
            "JavaScript",
            "Node.js",
            "Java"
        ]
    },
    {
        "id": 39,
        "name": "Juan Miller",
        "location": {
            "city": "West Kathryn",
            "zip": "46690"
        },
        "skills": [
            "C++",
            "SQL"
        ]
    },
    {
        "id": 40,
        "name": "David Chapman",
        "location": {
            "city": "Hilltown",
            "zip": "53299"
        },
        "skills": [
            "JavaScript",
            "Java"
        ]
    },
    {
        "id": 41,
        "name": "Anne Green",
        "location": {
            "city": "Leahport",
            "zip": "21435"
        },
        "skills": [
            "JavaScript",
            "Django"
        ]
    },
    {
        "id": 42,
        "name": "Amanda Bennett",
        "location": {
            "city": "Wallacefort",
            "zip": "30491"
        },
        "skills": [
            "Java",
            "Node.js",
            "JavaScript"
        ]
    },
    {
        "id": 43,
        "name": "Sheila White",
        "location": {
            "city": "North Amyview",
            "zip": "79113"
        },
        "skills": [
            "Node.js",
            "MongoDB",
            "Java"
        ]
    },
    {
        "id": 44,
        "name": "Crystal Hudson",
        "location": {
            "city": "Colliermouth",
            "zip": "40528"
        },
        "skills": [
            "Node.js",
            "Flask",
            "JavaScript",
            "Python",
            "Java"
        ]
    },
    {
        "id": 45,
        "name": "John Jacobson",
        "location": {
            "city": "South Victoria",
            "zip": "69063"
        },
        "skills": [
            "Django",
            "JavaScript",
            "SQL",
            "Flask"
        ]
    },
    {
        "id": 46,
        "name": "Marvin Lopez",
        "location": {
            "city": "Nelsonfurt",
            "zip": "42611"
        },
        "skills": [
            "Java",
            "Python"
        ]
    },
    {
        "id": 47,
        "name": "Robert Miller",
        "location": {
            "city": "New Alexandra",
            "zip": "92667"
        },
        "skills": [
            "Java",
            "Flask",
            "SQL",
            "MongoDB",
            "C++"
        ]
    },
    {
        "id": 48,
        "name": "Terrence Jones Jr.",
        "location": {
            "city": "Danielport",
            "zip": "54048"
        },
        "skills": [
            "Flask",
            "Java"
        ]
    },
    {
        "id": 49,
        "name": "Jason Burns",
        "location": {
            "city": "New Rachelborough",
            "zip": "68750"
        },
        "skills": [
            "Node.js",
            "JavaScript"
        ]
    },
    {
        "id": 50,
        "name": "Trevor Perez",
        "location": {
            "city": "New Joshua",
            "zip": "63997"
        },
        "skills": [
            "React",
            "Java",
            "C++"
        ]
    }
]